{
    "table_name": "EDUCATION_BUSINESS.WEB_ACCOUNTS",
    "table_fullname": "EDUCATION_BUSINESS.EDUCATION_BUSINESS.WEB_ACCOUNTS",
    "column_names": [
        "sales_rep_id",
        "primary_poc",
        "website",
        "id",
        "lat",
        "name",
        "long"
    ],
    "column_types": [
        "NUMBER",
        "TEXT",
        "TEXT",
        "NUMBER",
        "FLOAT",
        "TEXT",
        "FLOAT"
    ],
    "description": [
        null,
        null,
        null,
        null,
        null,
        null,
        null
    ],
    "sample_rows": [
        {
            "id": 1011,
            "name": "Exxon Mobil",
            "website": "www.exxonmobil.com",
            "lat": 41.1691563,
            "long": -73.84937379,
            "primary_poc": "Sung Shields",
            "sales_rep_id": 321510
        },
        {
            "id": 1021,
            "name": "Apple",
            "website": "www.apple.com",
            "lat": 42.29049481,
            "long": -76.08400942,
            "primary_poc": "Jodee Lupo",
            "sales_rep_id": 321520
        },
        {
            "id": 1051,
            "name": "UnitedHealth Group",
            "website": "www.unitedhealthgroup.com",
            "lat": 40.08792542,
            "long": -75.57569396,
            "primary_poc": "Savanna Gayman",
            "sales_rep_id": 321550
        },
        {
            "id": 1061,
            "name": "CVS Health",
            "website": "www.cvshealth.com",
            "lat": 41.46779585,
            "long": -73.76763638,
            "primary_poc": "Anabel Haskell",
            "sales_rep_id": 321560
        },
        {
            "id": 1091,
            "name": "AT&T",
            "website": "www.att.com",
            "lat": 42.4974627,
            "long": -74.90271225,
            "primary_poc": "Jamel Mosqueda",
            "sales_rep_id": 321590
        }
    ]
}