{
    "table_name": "distribution_centers",
    "table_fullname": "bigquery-public-data.thelook_ecommerce.distribution_centers",
    "column_names": [
        "id",
        "name",
        "latitude",
        "longitude"
    ],
    "column_types": [
        "INT64",
        "STRING",
        "FLOAT64",
        "FLOAT64"
    ],
    "nested_column_names": [
        "id",
        "name",
        "latitude",
        "longitude"
    ],
    "nested_column_types": [
        "INT64",
        "STRING",
        "FLOAT64",
        "FLOAT64"
    ],
    "description": [
        null,
        null,
        null,
        null
    ],
    "sample_rows": [
        {
            "id": 1,
            "name": "Memphis TN",
            "latitude": 35.1174,
            "longitude": -89.9711
        },
        {
            "id": 2,
            "name": "Chicago IL",
            "latitude": 41.8369,
            "longitude": -87.6847
        },
        {
            "id": 3,
            "name": "Houston TX",
            "latitude": 29.7604,
            "longitude": -95.3698
        },
        {
            "id": 4,
            "name": "Los Angeles CA",
            "latitude": 34.05,
            "longitude": -118.25
        },
        {
            "id": 5,
            "name": "New Orleans LA",
            "latitude": 29.95,
            "longitude": -90.0667
        }
    ]
}