{
    "sample_rows": [
        {
            "store_id": 1419,
            "hub_id": 8,
            "store_name": "PLIMUMIO ",
            "store_segment": "GOOD",
            "store_plan_price": 29.9,
            "store_latitude": -22.921475,
            "store_longitude": -43.234822
        },
        {
            "store_id": 3987,
            "hub_id": 85,
            "store_name": "POI ILARUMUIMOI ",
            "store_segment": "FOOD",
            "store_plan_price": 49.0,
            "store_latitude": -23.5133533,
            "store_longitude": -46.6183535
        },
        {
            "store_id": 1395,
            "hub_id": 21,
            "store_name": "IUMZUMUAC FAM ",
            "store_segment": "GOOD",
            "store_plan_price": NaN,
            "store_latitude": -23.550407,
            "store_longitude": -46.721291
        },
        {
            "store_id": 780,
            "hub_id": 29,
            "store_name": "GARIOLIS ",
            "store_segment": "FOOD",
            "store_plan_price": NaN,
            "store_latitude": -23.561053,
            "store_longitude": -46.558976
        },
        {
            "store_id": 1154,
            "hub_id": 27,
            "store_name": "ILRU ",
            "store_segment": "GOOD",
            "store_plan_price": 29.9,
            "store_latitude": -23.622995,
            "store_longitude": -46.699204
        }
    ],
    "table_name": "stores",
    "table_fullname": "stores",
    "column_names": [
        "store_id",
        "hub_id",
        "store_name",
        "store_segment",
        "store_plan_price",
        "store_latitude",
        "store_longitude"
    ],
    "column_types": [
        "INTEGER",
        "INTEGER",
        "VARCHAR(50)",
        "VARCHAR(50)",
        "DECIMAL(10, 2)",
        "DECIMAL(9, 6)",
        "DECIMAL(9, 6)"
    ],
    "description": [
        "",
        "",
        "",
        "",
        "",
        "",
        ""
    ]
}