{
    "sample_rows": [
        {
            "id": 1461,
            "name": "Lowe`s",
            "website": "www.lowes.com",
            "lat": 42.02305207,
            "long": -74.82210597,
            "primary_poc": "Roselee Pardini",
            "sales_rep_id": 321540
        },
        {
            "id": 1921,
            "name": "3M",
            "website": "www.3m.com",
            "lat": 42.35869695,
            "long": -71.05271055,
            "primary_poc": "Orville Leavell",
            "sales_rep_id": 321580
        },
        {
            "id": 3131,
            "name": "HollyFrontier",
            "website": "www.hollyfrontier.com",
            "lat": 30.43948044,
            "long": -84.27672341,
            "primary_poc": "Maricela Humphries",
            "sales_rep_id": 321890
        },
        {
            "id": 2881,
            "name": "Monsanto",
            "website": "www.monsanto.com",
            "lat": 33.6865548,
            "long": -84.33725705,
            "primary_poc": "Loren Schlanger",
            "sales_rep_id": 321840
        },
        {
            "id": 3061,
            "name": "Kellogg",
            "website": "www.kelloggcompany.com",
            "lat": 30.44121265,
            "long": -84.28739112,
            "primary_poc": "Domonique Cave",
            "sales_rep_id": 321820
        }
    ],
    "table_name": "web_accounts",
    "table_fullname": "web_accounts",
    "column_names": [
        "id",
        "name",
        "website",
        "lat",
        "long",
        "primary_poc",
        "sales_rep_id"
    ],
    "column_types": [
        "INTEGER",
        "TEXT",
        "TEXT",
        "REAL",
        "REAL",
        "TEXT",
        "INTEGER"
    ],
    "description": [
        "",
        "",
        "",
        "",
        "",
        "",
        ""
    ]
}