{
    "sample_rows": [
        {
            "geolocation_zip_code_prefix": 8900,
            "geolocation_lat": -23.41703007438397,
            "geolocation_lng": -46.03386496794391,
            "geolocation_city": "guararema",
            "geolocation_state": "SP"
        },
        {
            "geolocation_zip_code_prefix": 18520,
            "geolocation_lat": -23.159482222434374,
            "geolocation_lng": -47.76046832976516,
            "geolocation_city": "cerquilho",
            "geolocation_state": "SP"
        },
        {
            "geolocation_zip_code_prefix": 89210,
            "geolocation_lat": -26.336437470165603,
            "geolocation_lng": -48.83769144601536,
            "geolocation_city": "joinville",
            "geolocation_state": "SC"
        },
        {
            "geolocation_zip_code_prefix": 79758,
            "geolocation_lat": -21.757988776500703,
            "geolocation_lng": -53.26856664727548,
            "geolocation_city": "nova casa verde",
            "geolocation_state": "MS"
        },
        {
            "geolocation_zip_code_prefix": 35160,
            "geolocation_lat": -19.51289595614291,
            "geolocation_lng": -42.56145298557327,
            "geolocation_city": "ipatinga",
            "geolocation_state": "MG"
        }
    ],
    "table_name": "geolocation",
    "table_fullname": "geolocation",
    "column_names": [
        "geolocation_zip_code_prefix",
        "geolocation_lat",
        "geolocation_lng",
        "geolocation_city",
        "geolocation_state"
    ],
    "column_types": [
        "INTEGER",
        "REAL",
        "REAL",
        "TEXT",
        "TEXT"
    ],
    "description": [
        "",
        "",
        "",
        "",
        ""
    ]
}