{
    "sample_rows": [
        {
            "circuit_id": 8,
            "circuit_ref": "magny_cours",
            "name": "Circuit de Nevers Magny-Cours",
            "location": "Magny Cours",
            "country": "France",
            "lat": 46.8642,
            "lng": 3.16361,
            "alt": 228,
            "url": "http://en.wikipedia.org/wiki/Circuit_de_Nevers_Magny-Cours"
        },
        {
            "circuit_id": 26,
            "circuit_ref": "jerez",
            "name": "Circuito de Jerez",
            "location": "Jerez de la Frontera",
            "country": "Spain",
            "lat": 36.7083,
            "lng": -6.03417,
            "alt": 37,
            "url": "http://en.wikipedia.org/wiki/Circuito_Permanente_de_Jerez"
        },
        {
            "circuit_id": 16,
            "circuit_ref": "fuji",
            "name": "Fuji Speedway",
            "location": "Oyama",
            "country": "Japan",
            "lat": 35.3717,
            "lng": 138.927,
            "alt": 583,
            "url": "http://en.wikipedia.org/wiki/Fuji_Speedway"
        },
        {
            "circuit_id": 27,
            "circuit_ref": "estoril",
            "name": "Aut\u00f3dromo do Estoril",
            "location": "Estoril",
            "country": "Portugal",
            "lat": 38.7506,
            "lng": -9.39417,
            "alt": 130,
            "url": "http://en.wikipedia.org/wiki/Aut%C3%B3dromo_do_Estoril"
        },
        {
            "circuit_id": 17,
            "circuit_ref": "shanghai",
            "name": "Shanghai International Circuit",
            "location": "Shanghai",
            "country": "China",
            "lat": 31.3389,
            "lng": 121.22,
            "alt": 5,
            "url": "http://en.wikipedia.org/wiki/Shanghai_International_Circuit"
        }
    ],
    "table_name": "circuits",
    "table_fullname": "circuits",
    "column_names": [
        "circuit_id",
        "circuit_ref",
        "name",
        "location",
        "country",
        "lat",
        "lng",
        "alt",
        "url"
    ],
    "column_types": [
        "INT(11)",
        "VARCHAR(255)",
        "VARCHAR(255)",
        "VARCHAR(255)",
        "VARCHAR(255)",
        "FLOAT",
        "FLOAT",
        "INT(11)",
        "VARCHAR(255)"
    ],
    "description": [
        "",
        "",
        "",
        "",
        "",
        "",
        "",
        "",
        ""
    ]
}