{
    "table_name": "hubs",
    "table_fullname": "spider2-public-data.delivery_center.hubs",
    "column_names": [
        "hub_id",
        "hub_name",
        "hub_city",
        "hub_state",
        "hub_latitude",
        "hub_longitude"
    ],
    "column_types": [
        "INT64",
        "STRING",
        "STRING",
        "STRING",
        "FLOAT64",
        "FLOAT64"
    ],
    "nested_column_names": [
        "hub_id",
        "hub_name",
        "hub_city",
        "hub_state",
        "hub_latitude",
        "hub_longitude"
    ],
    "nested_column_types": [
        "INT64",
        "STRING",
        "STRING",
        "STRING",
        "FLOAT64",
        "FLOAT64"
    ],
    "description": [
        null,
        null,
        null,
        null,
        null,
        null
    ],
    "sample_rows": [
        {
            "hub_id": 42,
            "hub_name": "PHP SHOPPING",
            "hub_city": "CURITIBA",
            "hub_state": "PR",
            "hub_latitude": -25.4381052,
            "hub_longitude": -49.266532
        },
        {
            "hub_id": 43,
            "hub_name": "HOTMILK SHOPPING",
            "hub_city": "CURITIBA",
            "hub_state": "PR",
            "hub_latitude": -25.4412212,
            "hub_longitude": -49.27769
        },
        {
            "hub_id": 44,
            "hub_name": "FORTRAN SHOPPING",
            "hub_city": "CURITIBA",
            "hub_state": "PR",
            "hub_latitude": -25.4351398,
            "hub_longitude": -49.3167883
        },
        {
            "hub_id": 75,
            "hub_name": "PYTHON SHOPPING",
            "hub_city": "CURITIBA",
            "hub_state": "PR",
            "hub_latitude": -25.477073,
            "hub_longitude": -49.28966
        },
        {
            "hub_id": 17,
            "hub_name": "SMALL SHOPPING",
            "hub_city": "S\u00c3O PAULO",
            "hub_state": "SP",
            "hub_latitude": -23.5920041,
            "hub_longitude": -46.6365035
        }
    ]
}